[{"name":"Livestream","category_code":"games_video","founded_year":2007,"lat":40.726155,"long":-73.995625,"office":{"description":"Livestream HQ","address1":"111 8th Avenue, #1509","address2":"","zip_code":"10011","city":"New York","state_code":"NY","country_code":"USA","latitude":40.726155,"longitude":-73.995625},"oficina":{"type":"Point","coordinates":[-73.995625,40.726155]},"total_USD_raised":14700000},{"name":"Wakoopa","category_code":"web","founded_year":2007,"lat":52.3745228,"long":4.8948623,"office":{"description":"Arts & Crafts","address1":"Damrak 70, 254","address2":"","zip_code":"1012LM","city":"Amsterdam","state_code":null,"country_code":"NLD","latitude":52.3745228,"longitude":4.8948623},"oficina":{"type":"Point","coordinates":[4.8948623,52.3745228]},"total_USD_raised":1000000},{"name":"SodaHead","category_code":"web","founded_year":2007,"lat":37.269175,"long":-119.306607,"office":{"description":"","address1":"16161 Ventura Blvd.","address2":"Suite C PMB 461","zip_code":"91436","city":"Encino","state_code":"CA","country_code":"USA","latitude":37.269175,"longitude":-119.306607},"oficina":{"type":"Point","coordinates":[-119.306607,37.269175]},"total_USD_raised":12700000},{"name":"Mahalo","category_code":"web","founded_year":2007,"lat":34.017606,"long":-118.487267,"office":{"description":"","address1":"3525 Eastham Dr.","address2":"","zip_code":"90232","city":"Culver City","state_code":"CA","country_code":"USA","latitude":34.017606,"longitude":-118.487267},"oficina":{"type":"Point","coordinates":[-118.487267,34.017606]},"total_USD_raised":21000000},{"name":"AdaptiveBlue","category_code":"games_video","founded_year":2007,"lat":40.801358,"long":-74.3372,"office":{"description":"","address1":"131 Varick St","address2":"","zip_code":"10013","city":"NYC","state_code":"NY","country_code":"USA","latitude":40.801358,"longitude":-74.3372},"oficina":{"type":"Point","coordinates":[-74.3372,40.801358]},"total_USD_raised":24000000},{"name":"Seesmic","category_code":"web","founded_year":2007,"lat":37.775196,"long":-122.419204,"office":{"description":"","address1":"1550 Bryant Street","address2":"Suite 890","zip_code":"94103","city":"San Francisco","state_code":"CA","country_code":"USA","latitude":37.775196,"longitude":-122.419204},"oficina":{"type":"Point","coordinates":[-122.419204,37.775196]},"total_USD_raised":16000000},{"name":"Filtrbox","category_code":"web","founded_year":2007,"lat":40.010492,"long":-105.276843,"office":{"description":"HQ","address1":"325 Lytton Ave","address2":"","zip_code":"94301","city":"Palo Alto","state_code":"CA","country_code":"USA","latitude":40.010492,"longitude":-105.276843},"oficina":{"type":"Point","coordinates":[-105.276843,40.010492]},"total_USD_raised":1920000},{"name":"Docstoc","category_code":"web","founded_year":2007,"lat":34.018275,"long":-118.495025,"office":{"description":"","address1":"409 S Santa Monica Blvd","address2":"Suite 2A","zip_code":"90401","city":"Santa Monica","state_code":"CA","country_code":"USA","latitude":34.018275,"longitude":-118.495025},"oficina":{"type":"Point","coordinates":[-118.495025,34.018275]},"total_USD_raised":4000000},{"name":"EyeJot","category_code":"web","founded_year":2007,"lat":47.5999337,"long":-122.3276962,"office":{"description":"","address1":"315 5th Ave South","address2":"Suite 800","zip_code":"98104","city":"Seattle","state_code":"WA","country_code":"USA","latitude":47.5999337,"longitude":-122.3276962},"oficina":{"type":"Point","coordinates":[-122.3276962,47.5999337]},"total_USD_raised":1150000},{"name":"Crunchyroll","category_code":"games_video","founded_year":2008,"lat":37.781265,"long":-122.393229,"office":{"description":"","address1":"","address2":"","zip_code":"94105","city":"San Francisco","state_code":"CA","country_code":"USA","latitude":37.781265,"longitude":-122.393229},"oficina":{"type":"Point","coordinates":[-122.393229,37.781265]},"total_USD_raised":4800000},{"name":"hulu","category_code":"games_video","founded_year":2007,"lat":34.031276,"long":-118.456806,"office":{"description":null,"address1":"12312 W. Olympic Blvd.","address2":null,"zip_code":"90064","city":"Los Angeles","state_code":"CA","country_code":"USA","latitude":34.031276,"longitude":-118.456806},"oficina":{"type":"Point","coordinates":[-118.456806,34.031276]},"total_USD_raised":100000000},{"name":"Mixx","category_code":"web","founded_year":2007,"lat":38.003376,"long":-79.420926,"office":{"description":"","address1":"","address2":"","zip_code":"22102","city":"McLean","state_code":"VA","country_code":"USA","latitude":38.003376,"longitude":-79.420926},"oficina":{"type":"Point","coordinates":[-79.420926,38.003376]},"total_USD_raised":3500000},{"name":"UpDown","category_code":"web","founded_year":2007,"lat":42.375392,"long":-71.118487,"office":{"description":null,"address1":"","address2":"","zip_code":"","city":"Cambridge","state_code":"MA","country_code":"USA","latitude":42.375392,"longitude":-71.118487},"oficina":{"type":"Point","coordinates":[-71.118487,42.375392]},"total_USD_raised":1750000},{"name":"Fixya","category_code":"web","founded_year":2013,"lat":37.566879,"long":-122.323895,"office":{"description":"","address1":"One Franklin Parkway","address2":"Building 910, Suite 110","zip_code":"94401","city":"San Mateo","state_code":"CA","country_code":"USA","latitude":37.566879,"longitude":-122.323895},"oficina":{"type":"Point","coordinates":[-122.323895,37.566879]},"total_USD_raised":8000000},{"name":"Whiskey Media","category_code":"web","founded_year":2007,"lat":37.856331,"long":-122.495222,"office":{"description":"HQ","address1":"921 Front St.","address2":"Suite #100","zip_code":"94111","city":"San Francisco","state_code":"CA","country_code":"USA","latitude":37.856331,"longitude":-122.495222},"oficina":{"type":"Point","coordinates":[-122.495222,37.856331]},"total_USD_raised":4000000},{"name":"SpeedDate","category_code":"web","founded_year":2007,"lat":37.557637,"long":-122.285714,"office":{"description":"","address1":"1500 Fashion Island Blvd","address2":"","zip_code":"94404","city":"San Mateo","state_code":"CA","country_code":"USA","latitude":37.557637,"longitude":-122.285714},"oficina":{"type":"Point","coordinates":[-122.285714,37.557637]},"total_USD_raised":11600000},{"name":"Polyvore","category_code":"web","founded_year":2007,"lat":37.386175,"long":-122.083487,"office":{"description":"","address1":"","address2":"","zip_code":"","city":"Mountain View","state_code":"CA","country_code":"USA","latitude":37.386175,"longitude":-122.083487},"oficina":{"type":"Point","coordinates":[-122.083487,37.386175]},"total_USD_raised":22100000},{"name":"Disqus","category_code":"web","founded_year":2007,"lat":37.786906,"long":-122.397672,"office":{"description":"","address1":"301 Howard","address2":"3rd Floor","zip_code":"94105","city":"San Francisco","state_code":"CA","country_code":"USA","latitude":37.786906,"longitude":-122.397672},"oficina":{"type":"Point","coordinates":[-122.397672,37.786906]},"total_USD_raised":10500000},{"name":"RepairPal","category_code":"web","founded_year":2007,"lat":37.838225,"long":-122.296411,"office":{"description":"","address1":"6005 Shellmound St","address2":"Suite 200","zip_code":"94608","city":"Emeryville","state_code":"CA","country_code":"USA","latitude":37.838225,"longitude":-122.296411},"oficina":{"type":"Point","coordinates":[-122.296411,37.838225]},"total_USD_raised":21300000},{"name":"WEbook","category_code":"web","founded_year":2007,"lat":38.984172,"long":-77.095965,"office":{"description":"Business HQ","address1":"307 Fifth Avenue","address2":"Floor 7","zip_code":"10016","city":"New York","state_code":"NY","country_code":"USA","latitude":38.984172,"longitude":-77.095965},"oficina":{"type":"Point","coordinates":[-77.095965,38.984172]},"total_USD_raised":5000000},{"name":"GameLayers","category_code":"web","founded_year":2007,"lat":37.803847,"long":-122.402468,"office":{"description":null,"address1":"1 Lombard Street","address2":"Suite 303","zip_code":"94111","city":"San Francisco","state_code":"CA","country_code":"USA","latitude":37.803847,"longitude":-122.402468},"oficina":{"type":"Point","coordinates":[-122.402468,37.803847]},"total_USD_raised":2000000},{"name":"divorce360","category_code":"web","founded_year":2007,"lat":26.820375,"long":-80.058401,"office":{"description":null,"address1":"760 US Highway One","address2":"","zip_code":"33418","city":"North Palm Beach","state_code":"FL","country_code":"USA","latitude":26.820375,"longitude":-80.058401},"oficina":{"type":"Point","coordinates":[-80.058401,26.820375]},"total_USD_raised":2500000},{"name":"TravelMuse","category_code":"web","founded_year":2007,"lat":37.402802,"long":-122.117418,"office":{"description":"","address1":"55 Broad Street","address2":"24th Floor","zip_code":"10004","city":"New York","state_code":"NY","country_code":"USA","latitude":37.402802,"longitude":-122.117418},"oficina":{"type":"Point","coordinates":[-122.117418,37.402802]},"total_USD_raised":5600000},{"name":"clipsync","category_code":"web","founded_year":2007,"lat":37.2906027,"long":-121.9317853,"office":{"description":"","address1":"Pier 33 South Embarcadero","address2":"Suite 201","zip_code":"94111","city":"San Francisco","state_code":"CA","country_code":"USA","latitude":37.2906027,"longitude":-121.9317853},"oficina":{"type":"Point","coordinates":[-121.9317853,37.2906027]},"total_USD_raised":1510000},{"name":"Lookery","category_code":"web","founded_year":2007,"lat":37.788266,"long":-122.403865,"office":{"description":"West Coast","address1":"25 Kearny St","address2":"Suite 500","zip_code":"94108","city":"San Francisco","state_code":"CA","country_code":"USA","latitude":37.788266,"longitude":-122.403865},"oficina":{"type":"Point","coordinates":[-122.403865,37.788266]},"total_USD_raised":3150000},{"name":"Lookery","category_code":"web","founded_year":2007,"lat":42.398424,"long":-71.130297,"office":{"description":"East Coast","address1":"1 Camp Street","address2":"","zip_code":"02140","city":"Cambridge","state_code":"MA","country_code":"USA","latitude":42.398424,"longitude":-71.130297},"oficina":{"type":"Point","coordinates":[-71.130297,42.398424]},"total_USD_raised":3150000},{"name":"First30Days","category_code":"web","founded_year":2008,"lat":38.257035,"long":-85.717393,"office":{"description":null,"address1":"1760 Frankfort Avenue","address2":"","zip_code":"40206","city":"Louisville","state_code":"KY","country_code":"USA","latitude":38.257035,"longitude":-85.717393},"oficina":{"type":"Point","coordinates":[-85.717393,38.257035]},"total_USD_raised":5000000},{"name":"Bragster","category_code":"web","founded_year":2007,"lat":51.5220072,"long":-0.0766034,"office":{"description":"","address1":"4 Elder Street","address2":"","zip_code":"E1 6BT","city":"London","state_code":null,"country_code":"GBR","latitude":51.5220072,"longitude":-0.0766034},"oficina":{"type":"Point","coordinates":[-0.0766034,51.5220072]},"total_USD_raised":3500000},{"name":"Social Gaming Network","category_code":"games_video","founded_year":2011,"lat":37.446823,"long":-122.161523,"office":{"description":"HQ Los Angeles","address1":"9570 W. Pico Blvd 3rd Floor","address2":"","zip_code":"90035","city":"Los Angeles","state_code":"CA","country_code":"USA","latitude":37.446823,"longitude":-122.161523},"oficina":{"type":"Point","coordinates":[-122.161523,37.446823]},"total_USD_raised":17100000},{"name":"Social Gaming Network","category_code":"games_video","founded_year":2011,"lat":34.0698494,"long":-118.4054182,"office":{"description":"","address1":"9606 S. Santa Monica Blvd","address2":"2nd Floor","zip_code":"90210","city":"Beverly Hills","state_code":"CA","country_code":"USA","latitude":34.0698494,"longitude":-118.4054182},"oficina":{"type":"Point","coordinates":[-118.4054182,34.0698494]},"total_USD_raised":17100000},{"name":"Redux","category_code":"games_video","founded_year":2007,"lat":37.87168,"long":-122.269494,"office":{"description":"","address1":"2054 University Avenue","address2":"Floor #2","zip_code":"94704","city":"Berkeley","state_code":"CA","country_code":"USA","latitude":37.87168,"longitude":-122.269494},"oficina":{"type":"Point","coordinates":[-122.269494,37.87168]},"total_USD_raised":8109999},{"name":"99designs","category_code":"design","founded_year":2008,"lat":37.7955307,"long":-122.4005983,"office":{"description":"United States (HQ)","address1":"447 Battery St.","address2":"3rd Floor","zip_code":"94111","city":"San Francisco","state_code":"CA","country_code":"USA","latitude":37.7955307,"longitude":-122.4005983},"oficina":{"type":"Point","coordinates":[-122.4005983,37.7955307]},"total_USD_raised":35000000},{"name":"99designs","category_code":"design","founded_year":2008,"lat":52.4986199,"long":13.4469031,"office":{"description":"Europe","address1":"Schlesische Str. 29-30","address2":"","zip_code":"","city":"Berlin","state_code":null,"country_code":"DEU","latitude":52.4986199,"longitude":13.4469031},"oficina":{"type":"Point","coordinates":[13.4469031,52.4986199]},"total_USD_raised":35000000},{"name":"99designs","category_code":"design","founded_year":2008,"lat":-37.8026587,"long":144.9868546,"office":{"description":"Australia","address1":"204 Wellington St.","address2":"","zip_code":"3065","city":"Collingwood","state_code":null,"country_code":"AUS","latitude":-37.8026587,"longitude":144.9868546},"oficina":{"type":"Point","coordinates":[144.9868546,-37.8026587]},"total_USD_raised":35000000},{"name":"Next New Networks","category_code":"web","founded_year":2007,"lat":40.743808,"long":-73.983626,"office":{"description":"","address1":"22 W 21st St","address2":"10th Floor","zip_code":"10010","city":"New York","state_code":"NY","country_code":"USA","latitude":40.743808,"longitude":-73.983626},"oficina":{"type":"Point","coordinates":[-73.983626,40.743808]},"total_USD_raised":27100000},{"name":"Mytopia","category_code":"games_video","founded_year":2007,"lat":34.007967,"long":-118.489681,"office":{"description":"","address1":"","address2":"","zip_code":"94301","city":"Palo Alto","state_code":"CA","country_code":"USA","latitude":34.007967,"longitude":-118.489681},"oficina":{"type":"Point","coordinates":[-118.489681,34.007967]},"total_USD_raised":3500000},{"name":"MindBites","category_code":"web","founded_year":2007,"lat":37.09024,"long":-95.712891,"office":{"description":null,"address1":"","address2":"","zip_code":"","city":"","state_code":null,"country_code":"USA","latitude":37.09024,"longitude":-95.712891},"oficina":{"type":"Point","coordinates":[-95.712891,37.09024]},"total_USD_raised":1000000},{"name":"Zemanta","category_code":"web","founded_year":2007,"lat":51.5141566,"long":-0.0934254,"office":{"description":"London Office","address1":"107 Cheapside","address2":"","zip_code":"EC2V 6DY","city":"London","state_code":null,"country_code":"GBR","latitude":51.5141566,"longitude":-0.0934254},"oficina":{"type":"Point","coordinates":[-0.0934254,51.5141566]},"total_USD_raised":7350000},{"name":"Zemanta","category_code":"web","founded_year":2007,"lat":40.7387945,"long":-73.9939213,"office":{"description":"New York Office","address1":"33 West 17th St","address2":"Suite 903","zip_code":"10011","city":"New York","state_code":"NY","country_code":"USA","latitude":40.7387945,"longitude":-73.9939213},"oficina":{"type":"Point","coordinates":[-73.9939213,40.7387945]},"total_USD_raised":7350000},{"name":"Zemanta","category_code":"web","founded_year":2007,"lat":46.0607926,"long":14.4972218,"office":{"description":"Ljubljana Office","address1":"Celov\u0161ka 32","address2":"","zip_code":"SI - 1000","city":"Ljubljana","state_code":null,"country_code":"SVN","latitude":46.0607926,"longitude":14.4972218},"oficina":{"type":"Point","coordinates":[14.4972218,46.0607926]},"total_USD_raised":7350000},{"name":"Glassdoor","category_code":"web","founded_year":2007,"lat":37.868002,"long":-122.500111,"office":{"description":"","address1":"1 Harbor Drive","address2":"Suite 300","zip_code":"94965","city":"Sausalito","state_code":"CA","country_code":"USA","latitude":37.868002,"longitude":-122.500111},"oficina":{"type":"Point","coordinates":[-122.500111,37.868002]},"total_USD_raised":91500000},{"name":"AudioMicro","category_code":"games_video","founded_year":2008,"lat":34.153588,"long":-118.422495,"office":{"description":"","address1":"13351-D Riverside Dr #219","address2":"","zip_code":"91423","city":"Sherman Oaks","state_code":"CA","country_code":"USA","latitude":34.153588,"longitude":-118.422495},"oficina":{"type":"Point","coordinates":[-118.422495,34.153588]},"total_USD_raised":1250000},{"name":"TeachStreet","category_code":"web","founded_year":2007,"lat":47.6171788,"long":-122.3370801,"office":{"description":"","address1":"","address2":"","zip_code":"","city":"Seattle","state_code":"WA","country_code":"USA","latitude":47.6171788,"longitude":-122.3370801},"oficina":{"type":"Point","coordinates":[-122.3370801,47.6171788]},"total_USD_raised":3450000},{"name":"Modern Feed","category_code":"games_video","founded_year":2007,"lat":34.085749,"long":-118.343791,"office":{"description":null,"address1":"818 N. La Brea Ave.","address2":"","zip_code":"90038","city":"Los Angeles","state_code":"CA","country_code":"USA","latitude":34.085749,"longitude":-118.343791},"oficina":{"type":"Point","coordinates":[-118.343791,34.085749]},"total_USD_raised":3000000},{"name":"Serious Business","category_code":"games_video","founded_year":2008,"lat":37.7893215,"long":-122.4013624,"office":{"description":"","address1":"580 Market Street","address2":"#600","zip_code":"94104","city":"San Francisco","state_code":"CA","country_code":"USA","latitude":37.7893215,"longitude":-122.4013624},"oficina":{"type":"Point","coordinates":[-122.4013624,37.7893215]},"total_USD_raised":4000000},{"name":"Jinni","category_code":"games_video","founded_year":2008,"lat":32.0554,"long":34.7595,"office":{"description":"","address1":"","address2":"","zip_code":"","city":"Tel Aviv","state_code":null,"country_code":"ISR","latitude":32.0554,"longitude":34.7595},"oficina":{"type":"Point","coordinates":[34.7595,32.0554]},"total_USD_raised":8100000},{"name":"Sometrics","category_code":"games_video","founded_year":2007,"lat":34.048857,"long":-118.251343,"office":{"description":"","address1":"","address2":"","zip_code":"90245","city":"El Segundo","state_code":"CA","country_code":"USA","latitude":34.048857,"longitude":-118.251343},"oficina":{"type":"Point","coordinates":[-118.251343,34.048857]},"total_USD_raised":5550000},{"name":"GreenNote","category_code":"web","founded_year":2007,"lat":37.492685,"long":-122.227765,"office":{"description":"","address1":"","address2":"","zip_code":"","city":"Mather","state_code":"CA","country_code":"USA","latitude":37.492685,"longitude":-122.227765},"oficina":{"type":"Point","coordinates":[-122.227765,37.492685]},"total_USD_raised":4200000},{"name":"Crowd Science","category_code":"web","founded_year":2007,"lat":37.419041,"long":-122.087471,"office":{"description":"San Jose Headquarters","address1":"1735 Technology Drive","address2":"Suite 780","zip_code":"95110","city":"San Jose","state_code":"CA","country_code":"USA","latitude":37.419041,"longitude":-122.087471},"oficina":{"type":"Point","coordinates":[-122.087471,37.419041]},"total_USD_raised":2000000},{"name":"Crowd Science","category_code":"web","founded_year":2007,"lat":43.712309,"long":-79.399538,"office":{"description":"Toronto Office","address1":"40 Eglinton Ave East","address2":"Suite 200","zip_code":"M4P 3A2","city":"Toronto","state_code":null,"country_code":"CAN","latitude":43.712309,"longitude":-79.399538},"oficina":{"type":"Point","coordinates":[-79.399538,43.712309]},"total_USD_raised":2000000},{"name":"BrandYourself","category_code":"web","founded_year":2009,"lat":42.275263,"long":-71.24762,"office":{"description":"","address1":"120 Walker St","address2":"FL 2","zip_code":"10013","city":"New York","state_code":"NY","country_code":"USA","latitude":42.275263,"longitude":-71.24762},"oficina":{"type":"Point","coordinates":[-71.24762,42.275263]},"total_USD_raised":1500000},{"name":"SquareClock","category_code":"web","founded_year":2007,"lat":48.9064804,"long":2.2860418,"office":{"description":"","address1":"7 rue Jean Dutilloya","address2":"","zip_code":"92600","city":"Asnieres sur seine","state_code":null,"country_code":"FRA","latitude":48.9064804,"longitude":2.2860418},"oficina":{"type":"Point","coordinates":[2.2860418,48.9064804]},"total_USD_raised":1250000},{"name":"CrimeReports","category_code":"web","founded_year":2007,"lat":40.726342,"long":-111.858835,"office":{"description":"","address1":"2015 South 1100 East","address2":"","zip_code":"84106","city":"Salt Lake City","state_code":"UT","country_code":"USA","latitude":40.726342,"longitude":-111.858835},"oficina":{"type":"Point","coordinates":[-111.858835,40.726342]},"total_USD_raised":7200000},{"name":"Titan Gaming","category_code":"games_video","founded_year":2010,"lat":53.544711,"long":-113.515769,"office":{"description":"Santa Monica Office","address1":"1351 4th Street, 4th floor","address2":"","zip_code":"90401","city":"Santa Monica","state_code":"CA","country_code":"USA","latitude":53.544711,"longitude":-113.515769},"oficina":{"type":"Point","coordinates":[-113.515769,53.544711]},"total_USD_raised":1000000},{"name":"My Damn Channel","category_code":"games_video","founded_year":2007,"lat":40.754762,"long":-73.988543,"office":{"description":"My Damn Channel, Inc.","address1":"202 W. 40th St.","address2":"16th Floor","zip_code":"10018","city":"New York","state_code":"NY","country_code":"USA","latitude":40.754762,"longitude":-73.988543},"oficina":{"type":"Point","coordinates":[-73.988543,40.754762]},"total_USD_raised":8660000},{"name":"My Damn Channel","category_code":"games_video","founded_year":2007,"lat":33.9019543,"long":-118.3872018,"office":{"description":"Los Angeles office","address1":"2121 Rosecrans Ave.","address2":"Suite 4310","zip_code":"90245","city":"El Segundo","state_code":"CA","country_code":"USA","latitude":33.9019543,"longitude":-118.3872018},"oficina":{"type":"Point","coordinates":[-118.3872018,33.9019543]},"total_USD_raised":8660000},{"name":"Posterous","category_code":"web","founded_year":2008,"lat":37.775196,"long":-122.419204,"office":{"description":"","address1":"","address2":"","zip_code":"","city":"San Francisco","state_code":"CA","country_code":"USA","latitude":37.775196,"longitude":-122.419204},"oficina":{"type":"Point","coordinates":[-122.419204,37.775196]},"total_USD_raised":10100000},{"name":"Open Places","category_code":"web","founded_year":2008,"lat":37.758352,"long":-122.398379,"office":{"description":"San Francisco Office","address1":"616 Arkansas St","address2":"","zip_code":"94107","city":"San Francisco","state_code":"CA","country_code":"USA","latitude":37.758352,"longitude":-122.398379},"oficina":{"type":"Point","coordinates":[-122.398379,37.758352]},"total_USD_raised":1100000},{"name":"Genbook","category_code":"web","founded_year":2007,"lat":37.789902,"long":-122.4007791,"office":{"description":"Genbook","address1":"548 Market Street","address2":"","zip_code":"94104","city":"San Francisco","state_code":"CA","country_code":"USA","latitude":37.789902,"longitude":-122.4007791},"oficina":{"type":"Point","coordinates":[-122.4007791,37.789902]},"total_USD_raised":2200000},{"name":"Huddler","category_code":"web","founded_year":2007,"lat":37.7893215,"long":-122.4013624,"office":{"description":"HQ","address1":"525 Market St.","address2":"Suite 200","zip_code":"94105","city":"San Francisco","state_code":"CA","country_code":"USA","latitude":37.7893215,"longitude":-122.4013624},"oficina":{"type":"Point","coordinates":[-122.4013624,37.7893215]},"total_USD_raised":22800000},{"name":"Hunch","category_code":"web","founded_year":2007,"lat":40.741179,"long":-73.993182,"office":{"description":"","address1":"54 West 21st. Street...","address2":"","zip_code":"10010","city":"New York","state_code":"NY","country_code":"USA","latitude":40.741179,"longitude":-73.993182},"oficina":{"type":"Point","coordinates":[-73.993182,40.741179]},"total_USD_raised":19200000},{"name":"ngmoco","category_code":"games_video","founded_year":2008,"lat":37.7705096,"long":-122.4015807,"office":{"description":"Secret Factory","address1":"185 Berry Street","address2":"Suite 3000","zip_code":"94107","city":"San Francisco","state_code":"CA","country_code":"USA","latitude":37.7705096,"longitude":-122.4015807},"oficina":{"type":"Point","coordinates":[-122.4015807,37.7705096]},"total_USD_raised":44800000},{"name":"GoodGuide","category_code":"web","founded_year":2007,"lat":37.7983181,"long":-122.4000032,"office":{"description":"","address1":"","address2":"","zip_code":"94111","city":"San Francisco","state_code":"CA","country_code":"USA","latitude":37.7983181,"longitude":-122.4000032},"oficina":{"type":"Point","coordinates":[-122.4000032,37.7983181]},"total_USD_raised":14200000},{"name":"Spare Change Payments","category_code":"web","founded_year":2008,"lat":37.323234,"long":-122.055177,"office":{"description":"","address1":"21771 Stevens Creek Blvd","address2":"Suite 200","zip_code":"95014","city":"Cupertino","state_code":"CA","country_code":"USA","latitude":37.323234,"longitude":-122.055177},"oficina":{"type":"Point","coordinates":[-122.055177,37.323234]},"total_USD_raised":4727852},{"name":"Lolapps","category_code":"web","founded_year":2008,"lat":37.7870923,"long":-122.3999719,"office":{"description":"","address1":"116 New Montgomery","address2":"","zip_code":"94105","city":"San Francisco","state_code":"CA","country_code":"USA","latitude":37.7870923,"longitude":-122.3999719},"oficina":{"type":"Point","coordinates":[-122.3999719,37.7870923]},"total_USD_raised":4000000},{"name":"GoodGuide","category_code":"web","founded_year":2007,"lat":37.7983181,"long":-122.4000032,"office":{"description":"","address1":"","address2":"","zip_code":"94111","city":"San Francisco","state_code":"CA","country_code":"USA","latitude":37.7983181,"longitude":-122.4000032},"oficina":{"type":"Point","coordinates":[-122.4000032,37.7983181]},"total_USD_raised":14200000},{"name":"Spare Change Payments","category_code":"web","founded_year":2008,"lat":37.323234,"long":-122.055177,"office":{"description":"","address1":"21771 Stevens Creek Blvd","address2":"Suite 200","zip_code":"95014","city":"Cupertino","state_code":"CA","country_code":"USA","latitude":37.323234,"longitude":-122.055177},"oficina":{"type":"Point","coordinates":[-122.055177,37.323234]},"total_USD_raised":4727852},{"name":"Lolapps","category_code":"web","founded_year":2008,"lat":37.7870923,"long":-122.3999719,"office":{"description":"","address1":"116 New Montgomery","address2":"","zip_code":"94105","city":"San Francisco","state_code":"CA","country_code":"USA","latitude":37.7870923,"longitude":-122.3999719},"oficina":{"type":"Point","coordinates":[-122.3999719,37.7870923]},"total_USD_raised":4000000},{"name":"DealBase Corporation","category_code":"web","founded_year":2008,"lat":37.5758867,"long":-122.3277578,"office":{"description":"DB HQ","address1":"1112 Ocean Drive","address2":"","zip_code":"90266","city":"Manhattan Beach","state_code":"CA","country_code":"USA","latitude":37.5758867,"longitude":-122.3277578},"oficina":{"type":"Point","coordinates":[-122.3277578,37.5758867]},"total_USD_raised":1000000},{"name":"Cliqset","category_code":"web","founded_year":2008,"lat":30.310978,"long":-81.657707,"office":{"description":"Cliqset HQ","address1":"1450 Flagler Avenue","address2":"#3","zip_code":"32207","city":"Jacksonville","state_code":"FL","country_code":"USA","latitude":30.310978,"longitude":-81.657707},"oficina":{"type":"Point","coordinates":[-81.657707,30.310978]},"total_USD_raised":2000000},{"name":"Gowalla","category_code":"web","founded_year":2007,"lat":30.2729209,"long":-97.7443863,"office":{"description":"Austin Headquarters","address1":"","address2":"","zip_code":"78701","city":"Austin","state_code":"TX","country_code":"USA","latitude":30.2729209,"longitude":-97.7443863},"oficina":{"type":"Point","coordinates":[-97.7443863,30.2729209]},"total_USD_raised":10400000},{"name":"Reframe It","category_code":"web","founded_year":2007,"lat":37.782163,"long":-122.400591,"office":{"description":"HQ","address1":"795 Folsom Street","address2":"","zip_code":"94103","city":"San Francisco","state_code":"CA","country_code":"USA","latitude":37.782163,"longitude":-122.400591},"oficina":{"type":"Point","coordinates":[-122.400591,37.782163]},"total_USD_raised":3180000},{"name":"Britely","category_code":"web","founded_year":2007,"lat":37.458766,"long":-122.172519,"office":{"description":"","address1":"1895 El Camino Real","address2":"","zip_code":"94306","city":"Palo Alto","state_code":"CA","country_code":"USA","latitude":37.458766,"longitude":-122.172519},"oficina":{"type":"Point","coordinates":[-122.172519,37.458766]},"total_USD_raised":3900000},{"name":"Formspring","category_code":"web","founded_year":2009,"lat":39.9052263,"long":-86.0547016,"office":{"description":"Formspring","address1":"","address2":"","zip_code":"94105","city":"San Francisco","state_code":"CA","country_code":"USA","latitude":39.9052263,"longitude":-86.0547016},"oficina":{"type":"Point","coordinates":[-86.0547016,39.9052263]},"total_USD_raised":14300000},{"name":"SureSpeak","category_code":"games_video","founded_year":2007,"lat":41.889183,"long":-87.632519,"office":{"description":"Chicago Office","address1":"29 S Lasalle St","address2":"Suite 1205","zip_code":"60603","city":"Chicago","state_code":"IL","country_code":"USA","latitude":41.889183,"longitude":-87.632519},"oficina":{"type":"Point","coordinates":[-87.632519,41.889183]},"total_USD_raised":1600000},{"name":"DocVerse","category_code":"web","founded_year":2007,"lat":37.788115,"long":-122.397141,"office":{"description":"","address1":"530 Howard St.","address2":"Suite 450","zip_code":"94105","city":"San Francisco","state_code":"CA","country_code":"USA","latitude":37.788115,"longitude":-122.397141},"oficina":{"type":"Point","coordinates":[-122.397141,37.788115]},"total_USD_raised":1300000},{"name":"Yipit","category_code":"web","founded_year":2010,"lat":40.744618,"long":-73.987764,"office":{"description":"HQ","address1":"3 W 18th","address2":"2nd Floor","zip_code":"10011","city":"New York","state_code":"NY","country_code":"USA","latitude":40.744618,"longitude":-73.987764},"oficina":{"type":"Point","coordinates":[-73.987764,40.744618]},"total_USD_raised":7550000},{"name":"Trustpilot","category_code":"web","founded_year":2007,"lat":55.6739617,"long":12.5605372,"office":{"description":"Copenhagen HQ","address1":"Trommesalen 5","address2":"","zip_code":"1614","city":"Copenhagen V","state_code":null,"country_code":"DNK","latitude":55.6739617,"longitude":12.5605372},"oficina":{"type":"Point","coordinates":[12.5605372,55.6739617]},"total_USD_raised":18400000},{"name":"People Capital","category_code":"web","founded_year":2008,"lat":40.756054,"long":-73.986951,"office":{"description":"Headquarters","address1":"","address2":"","zip_code":"","city":"New York","state_code":"NY","country_code":"USA","latitude":40.756054,"longitude":-73.986951},"oficina":{"type":"Point","coordinates":[-73.986951,40.756054]},"total_USD_raised":2500000},{"name":"StockTwits","category_code":"web","founded_year":2008,"lat":32.7161896,"long":-117.168697,"office":{"description":"","address1":"600 West Broadway","address2":"Suite 910","zip_code":"92101","city":"San Diego","state_code":"CA","country_code":"USA","latitude":32.7161896,"longitude":-117.168697},"oficina":{"type":"Point","coordinates":[-117.168697,32.7161896]},"total_USD_raised":8600000},{"name":"Green Apple Media","category_code":"web","founded_year":2007,"lat":53.3438298,"long":-6.2689465,"office":{"description":"Mother Ship","address1":"14 - 16 Lord Edward St","address2":"Dublin 2","zip_code":"D2","city":"Dublin","state_code":null,"country_code":"IRL","latitude":53.3438298,"longitude":-6.2689465},"oficina":{"type":"Point","coordinates":[-6.2689465,53.3438298]},"total_USD_raised":132000000},{"name":"mydeco","category_code":"web","founded_year":2007,"lat":51.518101,"long":-0.468617,"office":{"description":"","address1":"Newcombe House","address2":"45 Notting Hill Gate","zip_code":"W11 3LQ","city":"London","state_code":null,"country_code":"GBR","latitude":51.518101,"longitude":-0.468617},"oficina":{"type":"Point","coordinates":[-0.468617,51.518101]},"total_USD_raised":10018716},{"name":"KODA","category_code":"web","founded_year":2008,"lat":37.788796,"long":-122.40971,"office":{"description":"San Francisco","address1":"220 Montgomery Street","address2":"#991","zip_code":"94104","city":"San Francisco","state_code":"CA","country_code":"USA","latitude":37.788796,"longitude":-122.40971},"oficina":{"type":"Point","coordinates":[-122.40971,37.788796]},"total_USD_raised":4500000},{"name":"KODA","category_code":"web","founded_year":2008,"lat":29.9739941,"long":-90.0822015,"office":{"description":"New Orleans","address1":"716 Adams Street","address2":"","zip_code":"70118","city":"New Orleans","state_code":"LA","country_code":"USA","latitude":29.9739941,"longitude":-90.0822015},"oficina":{"type":"Point","coordinates":[-90.0822015,29.9739941]},"total_USD_raised":4500000},{"name":"Tinychat","category_code":"web","founded_year":2009,"lat":42.3756409,"long":-72.5196907,"office":{"description":"Home Office","address1":"PO Box 431","address2":"","zip_code":"11542","city":"Glen Cove","state_code":"NY","country_code":"USA","latitude":42.3756409,"longitude":-72.5196907},"oficina":{"type":"Point","coordinates":[-72.5196907,42.3756409]},"total_USD_raised":1500000},{"name":"BASH Gaming","category_code":"games_video","founded_year":2010,"lat":37.5561712,"long":-122.0780632,"office":{"description":"US Office","address1":"","address2":"","zip_code":"94555","city":"Fremont","state_code":"CA","country_code":"USA","latitude":37.5561712,"longitude":-122.0780632},"oficina":{"type":"Point","coordinates":[-122.0780632,37.5561712]},"total_USD_raised":1000000},{"name":"BASH Gaming","category_code":"games_video","founded_year":2010,"lat":12.971606,"long":77.594376,"office":{"description":"India Office","address1":"","address2":"","zip_code":"","city":"Bangalore","state_code":null,"country_code":"IND","latitude":12.971606,"longitude":77.594376},"oficina":{"type":"Point","coordinates":[77.594376,12.971606]},"total_USD_raised":1000000},{"name":"SCVNGR","category_code":"games_video","founded_year":2008,"lat":42.3406534,"long":-71.0680027,"office":{"description":"SCVNGR","address1":"One Congress","address2":"Suite 111","zip_code":"021114","city":"Boston","state_code":"MA","country_code":"USA","latitude":42.3406534,"longitude":-71.0680027},"oficina":{"type":"Point","coordinates":[-71.0680027,42.3406534]},"total_USD_raised":40800000},{"name":"Z2Live","category_code":"games_video","founded_year":2009,"lat":47.6103008,"long":-122.3399782,"office":{"description":"Z2Live","address1":"1601 2nd Ave","address2":"Suite 800","zip_code":"98101","city":"Seattle","state_code":"WA","country_code":"USA","latitude":47.6103008,"longitude":-122.3399782},"oficina":{"type":"Point","coordinates":[-122.3399782,47.6103008]},"total_USD_raised":6500000},{"name":"Ranker","category_code":"web","founded_year":2008,"lat":34.1012181,"long":-118.325739,"office":{"description":"HQ","address1":"6420 Wilshire Blvd.","address2":"Suite 880","zip_code":"90048","city":"Los Angeles","state_code":"CA","country_code":"USA","latitude":34.1012181,"longitude":-118.325739},"oficina":{"type":"Point","coordinates":[-118.325739,34.1012181]},"total_USD_raised":5100000},{"name":"Tongal","category_code":"web","founded_year":2009,"lat":34.007112,"long":-118.489748,"office":{"description":"Headquarters","address1":"1918 Main Street","address2":"2nd Floor","zip_code":"90405","city":"Santa Monica","state_code":"CA","country_code":"USA","latitude":34.007112,"longitude":-118.489748},"oficina":{"type":"Point","coordinates":[-118.489748,34.007112]},"total_USD_raised":16000000},{"name":"HealthEngine","category_code":"web","founded_year":2007,"lat":-31.97822,"long":115.89084,"office":{"description":"Western Australia Office","address1":"6\/663 Newcastle St.","address2":"Leederville","zip_code":"6007","city":"Perth","state_code":null,"country_code":"AUS","latitude":-31.97822,"longitude":115.89084},"oficina":{"type":"Point","coordinates":[115.89084,-31.97822]},"total_USD_raised":10400000},{"name":"Smallaa","category_code":"web","founded_year":2008,"lat":37.39458,"long":-121.928393,"office":{"description":"Smallaa Inc","address1":"2860 Zanker Road Ste 108","address2":"","zip_code":"95134","city":"San Jose","state_code":"CA","country_code":"USA","latitude":37.39458,"longitude":-121.928393},"oficina":{"type":"Point","coordinates":[-121.928393,37.39458]},"total_USD_raised":3000000},{"name":"Milo","category_code":"web","founded_year":2008,"lat":37.444531,"long":-122.163352,"office":{"description":"Headquarters","address1":"170A University Ave.","address2":"","zip_code":"94301","city":"Palo Alto","state_code":"CA","country_code":"USA","latitude":37.444531,"longitude":-122.163352},"oficina":{"type":"Point","coordinates":[-122.163352,37.444531]},"total_USD_raised":4950000},{"name":"Busca Corp","category_code":"games_video","founded_year":2007,"lat":32.841791,"long":-117.274602,"office":{"description":"Busca Corp. USA","address1":"7590 Fay Ave. Suite 506","address2":"","zip_code":"92037","city":"La Jolla","state_code":"CA","country_code":"USA","latitude":32.841791,"longitude":-117.274602},"oficina":{"type":"Point","coordinates":[-117.274602,32.841791]},"total_USD_raised":5000000},{"name":"Busca Corp","category_code":"games_video","founded_year":2007,"lat":32.5217442,"long":-117.0274947,"office":{"description":"Busca Corp. Tijuana","address1":"Calle Brasil No. 8471","address2":"Col. Juarez","zip_code":"22040","city":"Tijuana, B.C.","state_code":null,"country_code":"MEX","latitude":32.5217442,"longitude":-117.0274947},"oficina":{"type":"Point","coordinates":[-117.0274947,32.5217442]},"total_USD_raised":5000000},{"name":"Busca Corp","category_code":"games_video","founded_year":2007,"lat":19.4164309,"long":-99.1651395,"office":{"description":"Busca Corp. Mexico City","address1":"Insurgentes Sur 348 Piso 9","address2":"Col. Roma","zip_code":"06700","city":"Mexico City","state_code":null,"country_code":"MEX","latitude":19.4164309,"longitude":-99.1651395},"oficina":{"type":"Point","coordinates":[-99.1651395,19.4164309]},"total_USD_raised":5000000},{"name":"Ykone","category_code":"web","founded_year":2009,"lat":48.8566667,"long":2.3509871,"office":{"description":"Ykone Headquarters","address1":"","address2":"","zip_code":"","city":"Paris","state_code":null,"country_code":"FRA","latitude":48.8566667,"longitude":2.3509871},"oficina":{"type":"Point","coordinates":[2.3509871,48.8566667]},"total_USD_raised":1336898},{"name":"Moviepilot","category_code":"web","founded_year":2007,"lat":52.4947266,"long":13.398504,"office":{"description":"German Headquarters","address1":"Mehringdamm 33","address2":"","zip_code":"10961","city":"Berlin","state_code":null,"country_code":"DEU","latitude":52.4947266,"longitude":13.398504},"oficina":{"type":"Point","coordinates":[13.398504,52.4947266]},"total_USD_raised":7000000},{"name":"Moviepilot","category_code":"web","founded_year":2007,"lat":34.0522342,"long":-118.2436849,"office":{"description":"US Office","address1":"","address2":"","zip_code":"","city":"Los Angeles","state_code":"CA","country_code":"USA","latitude":34.0522342,"longitude":-118.2436849},"oficina":{"type":"Point","coordinates":[-118.2436849,34.0522342]},"total_USD_raised":7000000},{"name":"CrowdGather","category_code":"web","founded_year":2008,"lat":34.168955,"long":-118.575293,"office":{"description":"HQ","address1":"20300 Ventura Blvd. Suite 330","address2":"","zip_code":"91364","city":"Woodland Hills","state_code":"CA","country_code":"USA","latitude":34.168955,"longitude":-118.575293},"oficina":{"type":"Point","coordinates":[-118.575293,34.168955]},"total_USD_raised":18000000},{"name":"ChallengePost","category_code":"web","founded_year":2009,"lat":40.7408042,"long":-74.00717,"office":{"description":"","address1":"425 West 13th Street","address2":"Suite 504","zip_code":"10014","city":"New York","state_code":"NY","country_code":"USA","latitude":40.7408042,"longitude":-74.00717},"oficina":{"type":"Point","coordinates":[-74.00717,40.7408042]},"total_USD_raised":4600000},{"name":"StyleCaster","category_code":"web","founded_year":2008,"lat":40.7450497,"long":-73.9900984,"office":{"description":"","address1":"49 W 27th St Uppr A","address2":"","zip_code":"10001-6936","city":"New York City","state_code":"NY","country_code":"USA","latitude":40.7450497,"longitude":-73.9900984},"oficina":{"type":"Point","coordinates":[-73.9900984,40.7450497]},"total_USD_raised":5000000},{"name":"Culture Jam","category_code":"web","founded_year":2008,"lat":34.0137151,"long":-118.4660597,"office":{"description":"","address1":"2434 Lincoln Blvd","address2":"Floor 2","zip_code":"90291","city":"Los Angeles","state_code":"CA","country_code":"USA","latitude":34.0137151,"longitude":-118.4660597},"oficina":{"type":"Point","coordinates":[-118.4660597,34.0137151]},"total_USD_raised":1700000},{"name":"Tiny Speck","category_code":"games_video","founded_year":2009,"lat":49.2824551,"long":-123.109217,"office":{"description":"","address1":"163 Hastings St W","address2":"","zip_code":"BC V6B 1H5","city":"Vancouver","state_code":null,"country_code":"CAN","latitude":49.2824551,"longitude":-123.109217},"oficina":{"type":"Point","coordinates":[-123.109217,49.2824551]},"total_USD_raised":17200000}]